{
  "receiptTypeAtOrigin": "CY",
  "deliveryTypeAtDestination": "CY",
  "cargoMovementTypeAtOrigin": "FCL",
  "cargoMovementTypeAtDestination": "FCL",
  "serviceContractReference": "SERVICE_CONTRACT_REFERENCE_PLACEHOLDER",
  "contractQuotationReference": "CONTRACT_QUOTATION_REFERENCE_PLACEHOLDER",
  "carrierExportVoyageNumber": "CARRIER_EXPORT_VOYAGE_NUMBER_PLACEHOLDER",
  "carrierServiceName": "CARRIER_SERVICE_NAME_PLACEHOLDER",
  "isPartialLoadAllowed": false,
  "isExportDeclarationRequired": true,
  "isImportLicenseRequired": true,
  "communicationChannelCode": "AO",
  "isEquipmentSubstitutionAllowed": true,
  "carrierServiceCode": "TA1",
  "vessel": {
    "name": "King of the Seas"
  },
  "requestedEquipments": [
    {
      "ISOEquipmentCode": "22GP",
      "units": 1,
      "isShipperOwned": false,
      "commodities": [
        {
          "HSCodes": ["COMMODITY_HS_CODE_1"],
          "commodityType": "COMMODITY_TYPE_1_PLACEHOLDER",
          "cargoGrossWeight": 323.32,
          "cargoGrossWeightUnit": "KGM"
        }
      ]
    }
  ],
  "documentParties": {
    "bookingAgent": {
      "partyName": "DCSA Conformance Toolkit",
      "address": {
        "name": "Mustermann",
        "street": "Strawinskylaan 4117",
        "floor": "6",
        "postCode": "1077 ZX",
        "city": "Amsterdam",
        "countryCode": "NL"
      },
      "partyContactDetails": [
        {
          "name": "Henrik",
          "phone": "+31611444666"
        }
      ]
    }
  },
  "shipmentLocations": [
    {
      "location": {
        "UNLocationCode": "POL_UNLOCATION_CODE_PLACEHOLDER",
        "address": {
          "name": "Port of Rotterdam",
          "street": "Europoort Rotterdam",
          "postCode": "3198 LK",
          "city": "Rotterdam",
          "countryCode": "NL"
        },
        "geoCoordinate": {
          "latitude": "53.551086",
          "longitude": "9.993682"
        }
      },
      "locationTypeCode": "POL"
    },
    {
      "location": {
        "UNLocationCode": "POD_UNLOCATION_CODE_PLACEHOLDER",
        "address": {
          "name": "Port of Hamburg",
          "street": " Neuer Wandrahm 4",
          "postCode": "20457",
          "city": "Hamburg",
          "countryCode": "DE"
        },
        "geoCoordinate": {
          "latitude": "51.907619",
          "longitude": "4.547350"
        }
      },
      "locationTypeCode": "POD"
    }
  ]
}
